[
    {
        "id": "valletta",
        "name": "Valletta",
        "category": "historic",
        "wikipediaTitle": "Valletta",
        "localImage": "/images/places/valletta.jpg",
        "description": "Malta's Baroque capital and UNESCO World Heritage city. Explore the Grand Harbour, St John's Co-Cathedral, and the Upper Barrakka Gardens.",
        "tags": ["Historic", "UNESCO site", "30 min by bus"],
        "lat": 35.8997,
        "lng": 14.5147
    },
    {
        "id": "mdina",
        "name": "Mdina",
        "category": "historic",
        "wikipediaTitle": "Mdina",
        "localImage": "/images/places/mdina.jpg",
        "description": "The Silent City — a medieval walled town perched on a hilltop. Best visited early morning before the crowds. Stunning views across the island.",
        "tags": ["Historic", "Medieval", "Bus 51, 52"],
        "lat": 35.8878,
        "lng": 14.4025
    },
    {
        "id": "gozo",
        "name": "Gozo Island",
        "category": "nature",
        "wikipediaTitle": "Gozo",
        "localImage": "/images/places/gozo.jpg",
        "description": "Malta's quieter sister island. Take the 25-minute ferry from Ċirkewwa. Visit the Citadella, swim at Ramla Bay, and explore dramatic coastal scenery.",
        "tags": ["Nature", "Day trip", "Ferry required"],
        "lat": 36.0444,
        "lng": 14.2396
    },
    {
        "id": "dingli",
        "name": "Dingli Cliffs",
        "category": "nature",
        "wikipediaTitle": "Dingli",
        "localImage": "/images/places/dingli.jpg",
        "description": "The highest point in Malta at 253 metres above sea level. Breathtaking clifftop walks with dramatic views over the Mediterranean. Best at sunset.",
        "tags": ["Nature", "Cliffs", "Walking"],
        "lat": 35.8572,
        "lng": 14.3842
    },
    {
        "id": "blueLagoon",
        "name": "Blue Lagoon",
        "category": "beaches",
        "wikipediaTitle": "Comino",
        "localImage": "/images/places/blueLagoon.jpg",
        "description": "Malta's most famous swimming spot on the tiny island of Comino. Crystal-clear turquoise water, perfect for snorkelling. Boat trips from Ċirkewwa.",
        "tags": ["Beaches", "Comino island", "Boat trip"],
        "lat": 36.0131,
        "lng": 14.3364
    },
    {
        "id": "goldenBay",
        "name": "Golden Bay",
        "category": "beaches",
        "wikipediaTitle": "Golden Bay (Malta)",
        "localImage": "/images/places/goldenBay.jpg",
        "description": "One of Malta's most popular sandy beaches on the northwest coast. Backed by gentle dunes with sunbeds, a café, and regular bus connections.",
        "tags": ["Beaches", "Sandy beach", "Bus 223"],
        "lat": 35.9248,
        "lng": 14.3339
    },
    {
        "id": "marsaxlokk",
        "name": "Marsaxlokk",
        "category": "village",
        "wikipediaTitle": "Marsaxlokk",
        "localImage": "/images/places/marsaxlokk.jpg",
        "description": "A traditional fishing village famous for its colourful luzzu boats. The Sunday market is a highlight — fresh fish, local produce, and crafts.",
        "tags": ["Village", "Sunday market", "Bus 81, 85"],
        "lat": 35.8414,
        "lng": 14.5431
    },
    {
        "id": "sliema",
        "name": "Sliema",
        "category": "village",
        "wikipediaTitle": "Sliema",
        "localImage": "/images/places/sliema.jpg",
        "description": "Malta's modern seafront strip. Great for restaurants, cafés, and evening walks along the promenade. Easy to reach by bus or the Valletta ferry.",
        "tags": ["Village", "Restaurants", "Seafront"],
        "lat": 35.9117,
        "lng": 14.5022
    }
]
